Identifier,Language_name,Language_ID,Family,Longitude,Latitude
tlingit_tlin1245,Tlingit,tlin1245,Athapaskan-Eyak-Tlingit [atha1245],-135.29030999999998,59.444665
dargwagapshimashuktidialect_darg1241,Dargwa (Gapshima Shukti dialect),darg1241,Nakh-Daghestanian [nakh1245],47.43876,42.42568
manange_mana1288,Manange,mana1288,Sino-Tibetan [sino1245],84.05154,28.64158
rumai_ruma1248,Rumai,ruma1248,Austroasiatic [aust1305],97.317245,23.640405
sanchongkelao_gree1278,Sanchong Kelao,gree1278,Tai-Kadai [taik1256],104.69783,22.5632
polci_polc1243,Polci,polc1243,Afro-Asiatic [afro1255],9.53362,10.02581
rapanui_rapa1244,Rapa Nui,rapa1244,Austronesian [aust1307],-109.34249,-27.11299
nogai_noga1249,Nogai,noga1249,Turkic [turk1311],46.66178,43.59168
avarkusurdialect_avar1256,Avar (Kusur dialect),avar1256,Nakh-Daghestanian [nakh1245],46.55802,41.70474
southernkam_sout2741,Southern Kam,sout2741,Tai-Kadai [taik1256],109.22191,25.8874
nahuatlsierradezacapoaxtlavariety_high1278,Nahuatl (Sierra de Zacapoaxtla variety),high1278,Uto-Aztecan [utoa1244],-97.55562,20.15536
imbaburaquechua_imba1240,Imbabura Quechua,imba1240,Quechuan [quec1387],-78.37286,0.31776
hlaibaotingvariety_hlai1239,Hlai (Baoting variety),hlai1239,Tai-Kadai [taik1256],109.4587,18.80621
moseten_mose1249,Mosetén,mose1249,NAN,-67.83756,-14.64448
chechen_chec1245,Chechen,chec1245,Nakh-Daghestanian [nakh1245],45.5,43.5
chipaya_chip1262,Chipaya,chip1262,Uru-Chipaya [uruc1242],-67.89633,-18.73951
oldchurchslavonic_chur1257,Old Church Slavonic,chur1257,Indo-European [indo1319],22.844237,43.717123
mari_east2328,Mari,east2328,Uralic [ural1272],48.40502,55.8307
prai_pray1239,Prai,pray1239,Austroasiatic [aust1305],101.02103,19.43064
kemekemievariety_manm1238,Keme (Kemie variety),manm1238,Austroasiatic [aust1305],100.84153,22.07427
cayuvava_cayu1262,Cayuvava,cayu1262,NAN,-65.48219,-13.24822
cofan_cofa1242,Cofán,cofa1242,NAN,-77.064305,0.276675
sakha_yaku1245,Sakha,yaku1245,Turkic [turk1311],133.98031,61.69744
tsezmokokdialect_dido1241,Tsez (Mokok dialect) ,dido1241,Nakh-Daghestanian [nakh1245],45.80959,42.26458
sui_suii1243,Sui,suii1243,Tai-Kadai [taik1256],106.56279,24.048835
romanian_roma1327,Romanian,roma1327,Indo-European [indo1319],24.225569999999998,46.39129200000001
karaja_kara1500,Karajá,kara1500,Nuclear-Macro-Je [nucl1710],-50.34918,-11.18812
iduh_oduu1239,Iduh,oduu1239,Austroasiatic [aust1305],104.106145,19.349715
ayoreo_ayor1240,Ayoreo,ayor1240,Zamucoan [zamu1243],-60.217495,-19.220055000000002
wichi_wich1264,Wichí,wich1264,Matacoan [mata1289],-62.17574,-23.16326
wayampi_waya1270,Wayampi,waya1270,Tupian [tupi1275],-52.688705,1.73817
archivariety1_arch1244,Archi (variety 1),arch1244,Nakh-Daghestanian [nakh1245],46.82673,42.3239
nyakur_nyah1250,Nyakur,nyah1250,Austroasiatic [aust1305],101.51465,15.89091
tsakhur_tsak1249,Tsakhur,tsak1249,Nakh-Daghestanian [nakh1245],46.88585,41.59156
waorani_waor1240,Waorani,waor1240,NAN,-76.68295,-1.12312
pusing_bitt1240,Pusing,bitt1240,Austroasiatic [aust1305],101.915765,21.347375
cavinena_cavi1250,Cavineña,cavi1250,Tacanan [taca1255],-66.62773,-13.35441
irish_iris1253,Irish,iris1253,Indo-European [indo1319],-7.61509,53.21855
rutul_rutu1240,Rutul,rutu1240,Nakh-Daghestanian [nakh1245],47.32436,41.61866
aghul_aghu1253,Aghul,aghu1253,Nakh-Daghestanian [nakh1245],47.58429,41.92418
vietnamese_viet1252,Vietnamese,viet1252,Austroasiatic [aust1305],106.75682666666665,18.388703333333336
hindi_hind1269,Hindi  ,hind1269,Indo-European [indo1319],77.0,25.0
whitehmong_hmon1333,White Hmong,hmon1333,Hmong-Mien [hmon1336],103.163915,21.546059999999997
archi_arch1244,Archi,arch1244,Nakh-Daghestanian [nakh1245],46.82673,42.3239
lakshalidialect_lakk1252,Lak (Shali dialect),lakk1252,Nakh-Daghestanian [nakh1245],47.0809,42.13275
telugu_telu1262,Telugu,telu1262,Dravidian [drav1251],78.702392,16.452944
chiriguano_east2555,Chiriguano,east2555,Tupian [tupi1275],-61.717855,-21.090935
khamuangchiangmaivariety_nort2740,Khamuang (Chiang Mai variety),nort2740,Tai-Kadai [taik1256],100.20739,18.857495
mansi_mans1258,Mansi,mans1258,Uralic [ural1272],61.34397,64.41179
catuquina_pano1254,Catuquina,pano1254,Panoan [pano1256],-71.56151,-7.97456
czech_czec1258,Czech,czec1258,Indo-European [indo1319],15.10437,49.873398
gawwada_gaww1239,Gawwada,gaww1239,Afro-Asiatic [afro1255],37.2737,5.37869
avaransaltadialect_avar1256,Avar (Ansalta dialect),avar1256,Nakh-Daghestanian [nakh1245],46.55802,41.70474
saramaccan_sara1340,Saramaccan,sara1340,Indo-European [indo1319],-54.02384,4.5472850000000005
tamil_tami1289,Tamil,tami1289,Dravidian [drav1251],78.825989,10.520219
tibetan_tibe1272,Tibetan,tibe1272,Sino-Tibetan [sino1245],90.18724333333334,28.36807
yavitero_yavi1244,Yavitero,yavi1244,Arawakan [araw1281],-67.42829,9.8194
ignaciano_igna1246,Ignaciano,igna1246,Arawakan [araw1281],-65.39934,-15.11882
bulang3_blan1242,Bulang-3,blan1242,Austroasiatic [aust1305],99.74047333333334,22.009203333333332
chechenakkindialect_chec1245,Chechen (Akkin dialect),chec1245,Nakh-Daghestanian [nakh1245],45.5,43.5
khwarshikwantladadialect_khva1239,Khwarshi (Kwantlada dialect),khva1239,Nakh-Daghestanian [nakh1245],45.99765,42.27434
spanish_stan1288,Spanish,stan1288,Indo-European [indo1319],-1.1178799999999998,40.4414175
selknam_onaa1245,Selknam,onaa1245,Chonan [chon1288],-68.5,-54
malagasy_plat1254,Malagasy,plat1254,Austronesian [aust1307],47.12111,-19.59065
kunza_kunz1244,Kunza,kunz1244,NAN,-69.0,-23.0
marathi_mara1378,Marathi,mara1378,Indo-European [indo1319],76.66649,17.93438
chacobo_chac1251,Chácobo,chac1251,Panoan [pano1256],-66.71641,-12.13298
tuamotuan_tuam1242,Tuamotuan,tuam1242,Austronesian [aust1307],-140.6576,-21.70902
akhvakhnortherndialect_akhv1239,Akhvakh (Northern dialect),akhv1239,Nakh-Daghestanian [nakh1245],46.30369,42.40035
avestan_aves1237,Avestan,aves1237,Indo-European [indo1319],53.633,31.541
kildinsaami_kild1236,Kildin Saami,kild1236,Uralic [ural1272],35.83479,68.21579
muisca_chib1270,Muisca,chib1270,Chibchan [chib1249],-74.16665,6.24999
bulang2_blan1242,Bulang-2,blan1242,Austroasiatic [aust1305],99.74047333333334,22.009203333333332
otomi_mezq1235,Otomi,mezq1235,Otomanguean [otom1299],-99.55642,20.22745
polish_poli1260,Polish,poli1260,Indo-European [indo1319],18.625487,51.843923
danish_dani1285,Danish,dani1285,Indo-European [indo1319],9.36284,54.8655
lakarakuldialect_lakk1252,Lak (Arakul dialect),lakk1252,Nakh-Daghestanian [nakh1245],47.0809,42.13275
tsakhurgelmetsdialect_tsak1249,Tsakhur (Gelmets dialect),tsak1249,Nakh-Daghestanian [nakh1245],46.88585,41.59156
swahili_swah1253,Swahili,swah1253,Atlantic-Congo [atla1278],37.6240325,-8.2560525
dargwakadardialect_darg1241,Dargwa (Kadar dialect),darg1241,Nakh-Daghestanian [nakh1245],47.43876,42.42568
siriono_siri1273,Sirionó,siri1273,Tupian [tupi1275],-63.9688,-15.52979
hinuq_hinu1240,Hinuq,hinu1240,Nakh-Daghestanian [nakh1245],45.80638,42.45022
qeqchi_kekc1242,Q'eqchi',kekc1242,Mayan [maya1287],-89.24521,15.378796666666668
lengua_leng1262,Lengua,leng1262,Lengua-Mascoy [leng1261],-58.90528,-22.65586
ancientgreek_anci1242,Ancient Greek ,anci1242,Indo-European [indo1319],21.91293,39.8155
oldprussian_prus1238,Old Prussian,prus1238,Indo-European [indo1319],14.757,52.394
gothic_goth1244,Gothic,goth1244,Indo-European [indo1319],29.97861,46.9304
japanese_nucl1643,Japanese,nucl1643,Japonic [japo1237],135.0,35.0
tailu_luuu1242,Tai Lü,luuu1242,Tai-Kadai [taik1256],101.281582,21.032106000000002
selkup_selk1253,Selkup,selk1253,Uralic [ural1272],82.30036,59.94093
kumykdorgelidialect_kumy1244,Kumyk (Dorgeli dialect),kumy1244,Turkic [turk1311],47.0,43.0
khinalug_khin1240,Khinalug,khin1240,Nakh-Daghestanian [nakh1245],48.05714,41.18014
latin_lati1261,Latin,lati1261,Indo-European [indo1319],12.45021,41.90264
nunglazhai_guib1244,Nung-Lazhai,guib1244,Tai-Kadai [taik1256],107.18368,23.68182
mlabri_mlab1235,Mlabri,mlab1235,Austroasiatic [aust1305],101.162995,18.553345
mandarinchinese_mand1415,Mandarin Chinese,mand1415,Sino-Tibetan [sino1245],116.228026,40.020884
lakkia_lakk1238,Lakkia,lakk1238,Tai-Kadai [taik1256],110.1058,24.11692
dargwagapshimadialect_darg1241,Dargwa (Gapshima dialect),darg1241,Nakh-Daghestanian [nakh1245],47.43876,42.42568
godoberi_ghod1238,Godoberi,ghod1238,Nakh-Daghestanian [nakh1245],46.22524,42.74276
taikhun_khun1259,Tai Khün,khun1259,Tai-Kadai [taik1256],99.336285,19.60624
yanomami_yano1262,Yanomámi,yano1262,Yanomam [yano1260],-62.85224,2.48999
shan_shan1277,Shan,shan1277,Tai-Kadai [taik1256],98.03422333333333,21.599496666666667
akhvakhsoutherndialect_akhv1239,Akhvakh (Southern dialect),akhv1239,Nakh-Daghestanian [nakh1245],46.30369,42.40035
canela_cane1242,Canela,cane1242,Nuclear-Macro-Je [nucl1710],-45.1299,-6.10712
avararaderikhdialect_avar1256,Avar (Araderikh dialect),avar1256,Nakh-Daghestanian [nakh1245],46.55802,41.70474
persian_west2369,Persian,west2369,Indo-European [indo1319],55.15860714285714,28.65928285714286
yiddish_east2295,Yiddish,east2295,Indo-European [indo1319],19.42,51.75
chong_chon1284,Chong,chon1284,Austroasiatic [aust1305],102.51371499999999,12.52181
tacana_taca1256,Tacana,taca1256,Tacanan [taca1255],-68.04056,-13.39249
pilaga_pila1245,Pilagá,pila1245,Guaicuruan [guai1249],-60.15372,-25.00585
french_stan1290,French,stan1290,Indo-European [indo1319],2.0,48.0
movima_movi1243,Movima,movi1243,NAN,-65.63482,-13.81152
kalina_gali1262,Kali'na,gali1262,Cariban [cari1283],-56.832297999999994,5.837718000000001
portuguese_port1283,Portuguese,port1283,Indo-European [indo1319],-4.18815,42.03412
waiwai_waiw1244,Wai Wai,waiw1244,Cariban [cari1283],-59.14166,1.5088050000000002
finnish_finn1318,Finnish,finn1318,Uralic [ural1272],25.557669999999998,64.76282499999999
mapudungun_mapu1245,Mapudungun,mapu1245,Araucanian [arau1255],-71.27700999999999,-38.73917
dekwana_maqu1238,De'kwana,maqu1238,Cariban [cari1283],-64.38772499999999,4.707045
kumykkajtaktumenlerdialect_kumy1244,Kumyk (Kajtak Tumenler dialect),kumy1244,Turkic [turk1311],47.0,43.0
aymara_cent2142,Aymara,cent2142,Aymara [ayma1253],-68.5,-17.0
ceqwong_chew1245,Ceq Wong,chew1245,Austroasiatic [aust1305],102.08116,3.83331
negerhollands_nege1244,Negerhollands,nege1244,Indo-European [indo1319],-64.89215,18.34155
jamaicancreolelimonesecreoledialect_jama1262,Jamaican Creole (Limonese Creole dialect),jama1262,Indo-European [indo1319],-77.2612,18.13
puinave_puin1248,Puinave,puin1248,NAN,-67.68860000000001,3.92974
karata_kara1474,Karata,kara1474,Nakh-Daghestanian [nakh1245],46.31511,42.65005
mangvn_mang1378,Mang VN,mang1378,Austroasiatic [aust1305],102.13320333333333,21.430453333333332
cayapa_chac1249,Cayapa,chac1249,Barbacoan [barb1265],-79.0508,0.71489
jinshadai_nort1545,Jinsha Dai,nort1545,Hmong-Mien [hmon1336],106.68224,26.72377
kumykkajtakdialect_kumy1244,Kumyk (Kajtak dialect),kumy1244,Turkic [turk1311],47.0,43.0
tsovatush_bats1242,Tsova-Tush,bats1242,Nakh-Daghestanian [nakh1245],45.34397,42.1806
breton_bret1244,Breton,bret1244,Indo-European [indo1319],-3.78934,48.24523
dehong_tain1252,Dehong,tain1252,Tai-Kadai [taik1256],99.72204500000001,21.7836725
tehuelche_tehu1242,Tehuelche,tehu1242,Chonan [chon1288],-68.32346,-47.57963
nungfengshan_guib1244,Nung-Fengshan,guib1244,Tai-Kadai [taik1256],107.18368,23.68182
lakbalkhardialect_lakk1252,Lak (Balkhar dialect),lakk1252,Nakh-Daghestanian [nakh1245],47.0809,42.13275
seychellescreole_sese1246,Seychelles Creole,sese1246,Indo-European [indo1319],55.4503,-4.62314
wa_nucl1290,Wa,nucl1290,Austroasiatic [aust1305],99.108045,23.102420000000002
embera_nort2972,Embera,nort2972,Chocoan [choc1280],-77.57396,7.12761
qawasqar_qawa1238,Qawasqar,qawa1238,Kawesqar [kawe1237],-75.3756,-49.70303
lithuanian_lith1251,Lithuanian,lith1251,Indo-European [indo1319],23.96007,55.14291
catalan_stan1289,Catalan,stan1289,Indo-European [indo1319],3.3937550000000005,41.89826
english_stan1293,English,stan1293,Indo-European [indo1319],-1.0,53.0
thaikoratvariety_sout2746,Thai (Korat variety),sout2746,Tai-Kadai [taik1256],99.7031,6.85668
russian_russ1263,Russian,russ1263,Indo-European [indo1319],72.392575,53.919516
lezgimikrakhdialect_lezg1247,Lezgi (Mikrakh dialect),lezg1247,Nakh-Daghestanian [nakh1245],47.89507,41.51572
shipiboconibo_ship1254,Shipibo-Conibo,ship1254,Panoan [pano1256],-74.82192,-7.17105
mahasupaharikotgharidialect_maha1287,Mahasu Pahari (Kotghari dialect),maha1287,Indo-European [indo1319],77.53166,31.00883
tarifiytberber_tari1263,Tarifiyt Berber,tari1263,Afro-Asiatic [afro1255],-1.87354,35.328085
uncunwee_ghul1238,Uncunwee,ghul1238,Nubian [nubi1251],29.81219,11.64319
iraqw_iraq1241,Iraqw,iraq1241,Afro-Asiatic [afro1255],35.29393,-4.19948
tongan_tong1325,Tongan,tong1325,Austronesian [aust1307],-175.25,-21.17
dargwamugidialect_darg1241,Dargwa (Mugi dialect),darg1241,Nakh-Daghestanian [nakh1245],47.43876,42.42568
judeotat_jude1256,Judeo-Tat,jude1256,Indo-European [indo1319],34.75,32.33
yagua_yagu1244,Yagua,yagu1244,Peba-Yagua [peba1241],-72.21864,-3.42913
sanapanaenlhetdialect_sana1281,Sanapaná (Enlhet dialect),sana1281,Lengua-Mascoy [leng1261],-58.90698,-22.11454
kasong_suoy1242,Kasong,suoy1242,Austroasiatic [aust1305],104.13608,11.93601
chorote_iyoj1235,Chorote,iyoj1235,Matacoan [mata1289],-63.23831,-22.1896
ecunbuyang_lang1316,Ecun Buyang,lang1316,Tai-Kadai [taik1256],104.44861,23.0105
shannorthernshandialect_shan1277,Shan (Northern Shan dialect),shan1277,Tai-Kadai [taik1256],98.03422333333333,21.599496666666667
udi_udii1243,Udi,udii1243,Nakh-Daghestanian [nakh1245],47.7236,40.9
nenets_nene1249,Nenets,nene1249,Uralic [ural1272],71.02339,66.17749
qaukelao_qaua1234,Qau Kelao,qaua1234,Tai-Kadai [taik1256],106.16455,26.155438
ninamshirishanavariety_nina1238,Ninam (Shirishana variety),nina1238,Yanomam [yano1260],-62.780114999999995,4.038935
dargwamegebdialect_darg1241,Dargwa (Megeb dialect),darg1241,Nakh-Daghestanian [nakh1245],47.43876,42.42568
udmurt_udmu1245,Udmurt,udmu1245,Uralic [ural1272],52.63548,56.12921
italian_ital1282,Italian,ital1282,Indo-European [indo1319],12.648925,43.046411
mulam_mula1253,Mulam,mula1253,Tai-Kadai [taik1256],108.92802,24.81515
hungarian_hung1274,Hungarian,hung1274,Uralic [ural1272],19.655527142857142,46.90685857142858
archivariety2_arch1244,Archi (variety 2),arch1244,Nakh-Daghestanian [nakh1245],46.82673,42.3239
hawaiian_hawa1245,Hawaiian,hawa1245,Austronesian [aust1307],-155.42995,19.62965
german_stan1295,German,stan1295,Indo-European [indo1319],12.467623333333336,48.64895399999999
khanty_khan1273,Khanty,khan1273,Uralic [ural1272],66.12177,62.43083
estonian_esto1258,Estonian,esto1258,Uralic [ural1272],22.820923333333337,59.54781666666667
ossetic_osse1243,Ossetic,osse1243,Indo-European [indo1319],43.26738,41.78816
bellacoola_bell1243,Bella Coola,bell1243,Salishan [sali1255],-126.68948,52.34481
siona_sion1247,Siona,sion1247,Tucanoan [tuca1253],-76.02367,0.31733
waura_waur1244,Waurá,waur1244,Arawakan [araw1281],-53.69711,-13.29598
avar_avar1256,Avar,avar1256,Nakh-Daghestanian [nakh1245],46.55802,41.70474
langjabuyang_emab1235,Langja Buyang,emab1235,Tai-Kadai [taik1256],104.44861,23.0105
karok_karo1304,Karok,karo1304,NAN,-123.31534,41.82283
hunzib_hunz1247,Hunzib,hunz1247,Nakh-Daghestanian [nakh1245],46.13691,42.08076
dutch_dutc1256,Dutch,dutc1256,Indo-European [indo1319],5.0,52.0
bulgarian_bulg1262,Bulgarian,bulg1262,Indo-European [indo1319],25.046986666666665,43.364585
lowersorbian_lowe1385,Lower Sorbian,lowe1385,Indo-European [indo1319],13.9407,51.66213
latvian_latv1249,Latvian,latv1249,Indo-European [indo1319],24.309118,56.826108
panare_enap1235,Panare,enap1235,Cariban [cari1283],-65.84825,6.95035
samre_samr1245,Samre,samr1245,Austroasiatic [aust1305],103.978,13.47899
oroqen_oroq1238,Oroqen,oroq1238,Tungusic [tung1282],125.01685,50.63193
punjabi_west2386,Punjabi,west2386,Indo-European [indo1319],75.34742499999999,30.094839999999998
bari_bari1297,Barí,bari1297,Chibchan [chib1249],-72.93525500000001,9.08497
pear_pear1247,Pear,pear1247,Austroasiatic [aust1305],105.02774,13.593
yuwana_yuwa1244,Yuwana,yuwa1244,NAN,-65.4267,5.63879
seri_seri1257,Seri,seri1257,NAN,-112.38366,28.98767
xu_huuu1240,Xu,huuu1240,Austroasiatic [aust1305],100.88061,22.01635
azerbaijaniterekemedialect_nort2697,Azerbaijani (Terekeme dialect),nort2697,Turkic [turk1311],46.4736975,40.977675000000005
chatinozacatepecvariety_zaca1242,Chatino (Zacatepec variety),zaca1242,Otomanguean [otom1299],-97.3069,16.07998
goajiro_wayu1243,Goajiro,wayu1243,Arawakan [araw1281],-71.81012,10.22515
rutulborchinokhnowdialect_rutu1240,Rutul (Borchino Khnow dialect),rutu1240,Nakh-Daghestanian [nakh1245],47.32436,41.61866
hup_hupd1244,Hup,hupd1244,Nadahup [nada1235],-69.835915,0.58622
yaminahua_yami1256,Yaminahua,yami1256,Panoan [pano1256],-71.59643333333334,-9.884596666666667
zuni_zuni1245,Zuni,zuni1245,NAN,-108.78197,35.00561
tuyuca_tuyu1244,Tuyuca,tuyu1244,Tucanoan [tuca1253],-70.043515,0.39441000000000004
gununakune_puel1244,Gününa Küne,puel1244,NAN,-62.94127,-36.63757
eseejja_esee1248,Ese Ejja,esee1248,Tacanan [taca1255],-67.51496,-11.72683
yaruro_pume1238,Yaruro,pume1238,NAN,-67.59958,7.10677
avareastgergebildialect_avar1256,Avar (East Gergebil dialect),avar1256,Nakh-Daghestanian [nakh1245],46.55802,41.70474
kme2kemievariety_manm1238,Kme-2 (Kemie variety),manm1238,Austroasiatic [aust1305],100.84153,22.07427
romani_vlax1238,Romani,vlax1238,Indo-European [indo1319],14.845092631578947,46.819123684210524
kanuri_cent2050,Kanuri,cent2050,Saharan [saha1256],16.391838,11.886274
nivacle_niva1238,Nivaclé,niva1238,Matacoan [mata1289],-61.76058999999999,-22.855710000000002
northernhaida_nort2938,Northern Haida,nort2938,Haida [haid1248],-132.46483999999998,54.69307
maori_maor1246,Maori,maor1246,Austronesian [aust1307],176.54055,-38.28814
andi_andi1255,Andi,andi1255,Nakh-Daghestanian [nakh1245],46.29187,42.80785
bagvalal_bagv1239,Bagvalal,bagv1239,Nakh-Daghestanian [nakh1245],46.1041,42.39664
paez_paez1247,Páez,paez1247,NAN,-76.31254,2.61516
botlikhmiarsodialect_botl1242,Botlikh (Miarso dialect),botl1242,Nakh-Daghestanian [nakh1245],46.19437,42.7658
thai_thai1261,Thai,thai1261,Tai-Kadai [taik1256],100.671386,14.191968
southerntaisongkhlavariety_sout2746,Southern Tai (Songkhla variety),sout2746,Tai-Kadai [taik1256],99.7031,6.85668
erzyamordvin_erzy1239,Erzya Mordvin,erzy1239,Uralic [ural1272],45.3901,52.85479
itonama_iton1250,Itonama,iton1250,NAN,-64.35748,-12.80431
maca_maca1260,Maca,maca1260,Matacoan [mata1289],-57.36935,-25.01186
moderngreek_mode1248,Modern Greek,mode1248,Indo-European [indo1319],24.86993777777778,42.32238555555555
upperchehalis_uppe1439,Upper Chehalis,uppe1439,Salishan [sali1255],-123.16929,46.79807
mangch_mang1378,Mang Ch,mang1378,Austroasiatic [aust1305],102.13320333333333,21.430453333333332
dargwa_darg1241,Dargwa,darg1241,Nakh-Daghestanian [nakh1245],47.43876,42.42568
mashcopiro_mash1270,Mashco Piro,mash1270,Arawakan [araw1281],-70.79527,-11.47453
tindi_tind1238,Tindi,tind1238,Nakh-Daghestanian [nakh1245],45.92268,42.33164
aguaruna_agua1253,Aguaruna,agua1253,Jivaroan [jiva1245],-77.92179,-5.30044
wapishana_wapi1253,Wapishana,wapi1253,Arawakan [araw1281],-59.80212,2.587435
dargwausishadialect_darg1241,Dargwa (Usisha dialect),darg1241,Nakh-Daghestanian [nakh1245],47.43876,42.42568
araona_arao1248,Araona,arao1248,Tacanan [taca1255],-67.72934,-12.42423
marquesan_sout2866,Marquesan,sout2866,Austronesian [aust1307],-138.97893,-9.75663
kumykterbragundialect_kumy1244,Kumyk (Ter Bragun dialect),kumy1244,Turkic [turk1311],47.0,43.0
yaqui_yaqu1251,Yaqui,yaqu1251,Uto-Aztecan [utoa1244],-110.68099000000001,29.94463
mocovi_moco1246,Mocoví,moco1246,Guaicuruan [guai1249],-60.41448,-28.09699
dargwagubdendialect_darg1241,Dargwa (Gubden dialect),darg1241,Nakh-Daghestanian [nakh1245],47.43876,42.42568
ahlaoth_aheu1239,Ahlao Th,aheu1239,Austroasiatic [aust1305],104.228545,17.76548
cashibo_cash1251,Cashibo,cash1251,Panoan [pano1256],-75.42062,-8.70232
epena_epen1239,Epena,epen1239,Chocoan [choc1280],-77.356568,4.258768
swedish_swed1254,Swedish,swed1254,Indo-European [indo1319],17.389526,59.800634
thavungso_aheu1239,Thavung So,aheu1239,Austroasiatic [aust1305],104.228545,17.76548
azerbaijani_nort2697,Azerbaijani,nort2697,Turkic [turk1311],46.4736975,40.977675000000005
centralthai_thai1261,Central Thai,thai1261,Tai-Kadai [taik1256],100.671386,14.191968
yagan_yama1264,Yagán,yama1264,NAN,-68.26479,-55.27479
khasi_khas1269,Khasi,khas1269,Austroasiatic [aust1305],91.99980500000001,24.97703
macushi_macu1259,Macushi,macu1259,Cariban [cari1283],-60.22087666666667,4.318613333333333
dargwamuiridialect_darg1241,Dargwa (Muiri dialect),darg1241,Nakh-Daghestanian [nakh1245],47.43876,42.42568
sanskrit_sans1269,Sanskrit,sans1269,Indo-European [indo1319],77.0,20.0
nungninbei_nung1283,Nung-Ninbei,nung1283,Tai-Kadai [taik1256],104.28585,20.8965
tabasarannortherndialectkhanagsubdialect_taba1259,Tabasaran (Northern dialect Khanag subdialect),taba1259,Nakh-Daghestanian [nakh1245],47.83791,42.01976
kumyk_kumy1244,Kumyk,kumy1244,Turkic [turk1311],47.0,43.0
takia_taki1248,Takia,taki1248,Austronesian [aust1307],145.97454,-4.69057
lak_lakk1252,Lak,lakk1252,Nakh-Daghestanian [nakh1245],47.0809,42.13275
albaniantoskvariety_tosk1239,Albanian (Tosk variety),tosk1239,Indo-European [indo1319],20.0,41.0
baure_baur1253,Baure,baur1253,Arawakan [araw1281],-64.18381,-13.12775
phong_phon1246,Phong,phon1246,Austroasiatic [aust1305],104.08797,19.96217
pacahuara_paca1246,Pacahuara,paca1246,Panoan [pano1256],-65.55679,-11.99684
zhuanglongzhou_zuoj1238,Zhuang-Longzhou,zuoj1238,Tai-Kadai [taik1256],107.3622,21.83753
maonan_maon1241,Maonan,maon1241,Tai-Kadai [taik1256],108.0244,25.01686
dargwasirkhidialect_darg1241,Dargwa (Sirkhi dialect),darg1241,Nakh-Daghestanian [nakh1245],47.43876,42.42568
chamalal_cham1309,Chamalal,cham1309,Nakh-Daghestanian [nakh1245],45.99496,42.50239
bezhta_bezh1248,Bezhta,bezh1248,Nakh-Daghestanian [nakh1245],46.03319,42.1206
kryz_kryt1240,Kryz,kryt1240,Nakh-Daghestanian [nakh1245],48.18457,41.18107
botlikh_botl1242,Botlikh,botl1242,Nakh-Daghestanian [nakh1245],46.19437,42.7658
elamite_elam1244,Elamite,elam1244,NAN,48.233333333333334,31.183333333333334
ket_kett1243,Ket,kett1243,Yeniseian [yeni1252],87.54663,63.75506
bulang_blan1242,Bulang,blan1242,Austroasiatic [aust1305],99.74047333333334,22.009203333333332
chadong_chad1240,Chadong,chad1240,Tai-Kadai [taik1256],109.96041,25.23532
guarani_para1311,Guaraní,para1311,Tupian [tupi1275],-57.08816,-25.60551
budukh_budu1248,Budukh,budu1248,Nakh-Daghestanian [nakh1245],48.33533,41.22722
lezgian_lezg1247,Lezgian,lezg1247,Nakh-Daghestanian [nakh1245],47.89507,41.51572
ingush_ingu1240,Ingush,ingu1240,Nakh-Daghestanian [nakh1245],44.15799,42.95255
komi_komi1268,Komi,komi1268,Uralic [ural1272],54.94599,64.05268
trinitario_trin1274,Trinitario,trin1274,Arawakan [araw1281],-65.40956,-15.33313
hausa_haus1257,Hausa,haus1257,Afro-Asiatic [afro1255],8.78039888888889,11.151274444444446
dargwamekegidialect_darg1241,Dargwa (Mekegi dialect),darg1241,Nakh-Daghestanian [nakh1245],47.43876,42.42568
munduruku_mund1330,Mundurukú,mund1330,Tupian [tupi1275],-57.69099,-8.41095
welsh_wels1247,Welsh,wels1247,Indo-European [indo1319],-4.0,52.0
eseejjahuarayo_esee1248,Ese Ejja (Huarayo),esee1248,Tacanan [taca1255],-67.51496,-11.72683
toba_toba1269,Toba,toba1269,Guaicuruan [guai1249],-60.44728666666666,-24.40253
northernsaami_nort2671,Northern Saami,nort2671,Uralic [ural1272],22.11129,68.72499666666666
indonesian_indo1316,Indonesian,indo1316,Austronesian [aust1307],109.71572,-7.33458
rotuman_rotu1241,Rotuman,rotu1241,Austronesian [aust1307],177.06614,-12.50082
kaingang_kain1272,Kaingáng,kain1272,Nuclear-Macro-Je [nucl1710],-52.53937,-27.76708
ache_ache1246,Aché,ache1246,Tupian [tupi1275],-56.46968,-25.58653
bengali_beng1280,Bengali,beng1280,Indo-European [indo1319],90.0,24.0
kumykkarabudakhkentdialect_kumy1244,Kumyk (Karabudakhkent dialect),kumy1244,Turkic [turk1311],47.0,43.0
pacaasnovos_wari1268,Pacaas Novos,wari1268,Chapacuran [chap1271],-64.56152,-10.69948
basque_basq1248,Basque,basq1248,NAN,-1.31622,43.27872
trumai_trum1247,Trumai,trum1247,NAN,-53.5717,-11.81195
gurindji_guri1247,Gurindji,guri1247,Pama-Nyungan [pama1250],130.37933,-17.03293
paliu_boly1239,Paliu,boly1239,Austroasiatic [aust1305],104.95452,24.70131
tsimshian_nucl1649,Tsimshian,nucl1649,Tsimshian [tsim1258],-130.49631499999998,54.62138
colorado_colo1256,Colorado,colo1256,Barbacoan [barb1265],-79.23468,-0.21181
